station,lat,lon
Estacion_A,40.4168,-3.7038
Estacion_B,40.4200,-3.7000
Estacion_C,40.4150,-3.6950
Estacion_D,40.4100,-3.6900
Estacion_E,40.4050,-3.6850
Estacion_F,40.4250,-3.7050
Estacion_G,40.4180,-3.6920
Estacion_H,40.4080,-3.6880
Estacion_I,40.4300,-3.7100
Estacion_J,40.4350,-3.7150
Estacion_K,40.4000,-3.6800
